id,kemendragi_code,province_id,name,timezone,lat,lng,elevation,created_at,updated_at
1101,11.01,11,Kabupaten Aceh Selatan,WIB,4.695135,96.7493993,1051,2025-03-04 02:28:14.028,2025-03-04 02:28:14.028
1102,11.02,11,Kabupaten Aceh Tenggara,WIB,4.695135,96.7493993,1051,2025-03-04 02:28:14.032,2025-03-04 02:28:14.032
1103,11.03,11,Kabupaten Aceh Timur,WIB,4.695135,96.7493993,1051,2025-03-04 02:28:14.033,2025-03-04 02:28:14.033
1104,11.04,11,Kabupaten Aceh Tengah,WIB,4.695135,96.7493993,1051,2025-03-04 02:28:14.034,2025-03-04 02:28:14.034
1105,11.05,11,Kabupaten Aceh Barat,WIB,4.695135,96.7493993,1051,2025-03-04 02:28:14.035,2025-03-04 02:28:14.035
1106,11.06,11,Kabupaten Aceh Besar,WIB,4.695135,96.7493993,1051,2025-03-04 02:28:14.036,2025-03-04 02:28:14.036
1107,11.07,11,Kabupaten Pidie,WIB,5.0742659,95.940971,1119,2025-03-04 02:28:14.036,2025-03-04 02:28:14.036
1108,11.08,11,Kabupaten Aceh Utara,WIB,4.695135,96.7493993,1051,2025-03-04 02:28:14.037,2025-03-04 02:28:14.037
1109,11.09,11,Kabupaten Simeulue,WIB,2.6439724,96.0255738,53,2025-03-04 02:28:14.038,2025-03-04 02:28:14.038
1110,11.10,11,Kabupaten Aceh Singkil,WIB,4.695135,96.7493993,1051,2025-03-04 02:28:14.039,2025-03-04 02:28:14.039
1111,11.11,11,Kabupaten Bireuen,WIB,5.1086446,96.663812,118,2025-03-04 02:28:14.039,2025-03-04 02:28:14.039
1112,11.12,11,Kabupaten Aceh Barat Daya,WIB,3.7963426,97.0068393,1274,2025-03-04 02:28:14.04,2025-03-04 02:28:14.04
1113,11.13,11,Kabupaten Gayo Lues,WIB,3.955165,97.3516558,973,2025-03-04 02:28:14.041,2025-03-04 02:28:14.041
1114,11.14,11,Kabupaten Aceh Jaya,WIB,4.695135,96.7493993,1051,2025-03-04 02:28:14.042,2025-03-04 02:28:14.042
1115,11.15,11,Kabupaten Nagan Raya,WIB,4.1248406,96.4929797,77,2025-03-04 02:28:14.043,2025-03-04 02:28:14.043
1116,11.16,11,Kabupaten Aceh Tamiang,WIB,4.695135,96.7493993,1051,2025-03-04 02:28:14.043,2025-03-04 02:28:14.043
1117,11.17,11,Kabupaten Bener Meriah,WIB,4.8317115,96.7253164,810,2025-03-04 02:28:14.044,2025-03-04 02:28:14.044
1118,11.18,11,Kabupaten Pidie Jaya,WIB,5.1548063,96.195132,181,2025-03-04 02:28:14.045,2025-03-04 02:28:14.045
1171,11.71,11,Kota Banda Aceh,WIB,5.5482904,95.3237559,10,2025-03-04 02:28:14.046,2025-03-04 02:28:14.046
1172,11.72,11,Kota Sabang,WIB,5.8926053,95.3237608,43,2025-03-04 02:28:14.047,2025-03-04 02:28:14.047
1173,11.73,11,Kota Lhokseumawe,WIB,5.1811638,97.1413222,4,2025-03-04 02:28:14.047,2025-03-04 02:28:14.047
1174,11.74,11,Kota Langsa,WIB,4.4725348,97.9756343,8,2025-03-04 02:28:14.048,2025-03-04 02:28:14.048
1175,11.75,11,Kota Subulussalam,WIB,2.7121164,97.9157099,34,2025-03-04 02:28:14.051,2025-03-04 02:28:14.051
1201,12.01,12,Kabupaten Tapanuli Tengah,WIB,1.8493299,98.704075,160,2025-03-04 02:28:14.052,2025-03-04 02:28:14.052
1202,12.02,12,Kabupaten Tapanuli Utara,WIB,2.0405246,99.1013498,1207,2025-03-04 02:28:14.052,2025-03-04 02:28:14.052
1203,12.03,12,Kabupaten Tapanuli Selatan,WIB,1.5774933,99.2785583,1070,2025-03-04 02:28:14.053,2025-03-04 02:28:14.053
1204,12.04,12,Kabupaten Nias,WIB,1.0869444,97.7416703,25,2025-03-04 02:28:14.054,2025-03-04 02:28:14.054
1205,12.05,12,Kabupaten Langkat,WIB,3.8653916,98.3088441,47,2025-03-04 02:28:14.054,2025-03-04 02:28:14.054
1206,12.06,12,Kabupaten Karo,WIB,2.9397267,98.5093057,1459,2025-03-04 02:28:14.055,2025-03-04 02:28:14.055
1207,12.07,12,Kabupaten Deli Serdang,WIB,3.4201802,98.704075,104,2025-03-04 02:28:14.056,2025-03-04 02:28:14.056
1208,12.08,12,Kabupaten Simalungun,WIB,2.9781612,99.2785583,120,2025-03-04 02:28:14.057,2025-03-04 02:28:14.057
1209,12.09,12,Kabupaten Asahan,WIB,2.8174722,99.634135,37,2025-03-04 02:28:14.057,2025-03-04 02:28:14.057
1210,12.10,12,Kabupaten Labuhanbatu,WIB,2.3439863,100.1703257,8,2025-03-04 02:28:14.058,2025-03-04 02:28:14.058
1211,12.11,12,Kabupaten Dairi,WIB,2.8675801,98.265058,525,2025-03-04 02:28:14.059,2025-03-04 02:28:14.059
1212,12.12,12,Kabupaten Toba,WIB,2.3502398,99.2785583,1243,2025-03-04 02:28:14.06,2025-03-04 02:28:14.06
1213,12.13,12,Kabupaten Mandailing Natal,WIB,0.7432372,99.3673084,846,2025-03-04 02:28:14.061,2025-03-04 02:28:14.061
1214,12.14,12,Kabupaten Nias Selatan,WIB,0.7086091,97.8286368,154,2025-03-04 02:28:14.062,2025-03-04 02:28:14.062
1215,12.15,12,Kabupaten Pakpak Bharat,WIB,2.5135376,98.2212979,635,2025-03-04 02:28:14.062,2025-03-04 02:28:14.062
1216,12.16,12,Kabupaten Humbang Hasundutan,WIB,2.1988508,98.5721016,1077,2025-03-04 02:28:14.063,2025-03-04 02:28:14.063
1217,12.17,12,Kabupaten Samosir,WIB,2.6274431,98.7921836,1521,2025-03-04 02:28:14.064,2025-03-04 02:28:14.064
1218,12.18,12,Kabupaten Serdang Bedagai,WIB,3.3371694,99.0571089,41,2025-03-04 02:28:14.065,2025-03-04 02:28:14.065
1219,12.19,12,Kabupaten Batu Bara,WIB,3.1740979,99.5006143,20,2025-03-04 02:28:14.066,2025-03-04 02:28:14.066
1220,12.20,12,Kabupaten Padang Lawas Utara,WIB,1.5758644,99.634135,193,2025-03-04 02:28:14.067,2025-03-04 02:28:14.067
1221,12.21,12,Kabupaten Padang Lawas,WIB,1.1186977,99.8124935,213,2025-03-04 02:28:14.068,2025-03-04 02:28:14.068
1222,12.22,12,Kabupaten Labuhanbatu Selatan,WIB,1.8799353,100.1703257,19,2025-03-04 02:28:14.068,2025-03-04 02:28:14.068
1223,12.23,12,Kabupaten Labuhanbatu Utara,WIB,2.3465638,99.8124935,26,2025-03-04 02:28:14.069,2025-03-04 02:28:14.069
1224,12.24,12,Kabupaten Nias Utara,WIB,1.3166036,97.394882,152,2025-03-04 02:28:14.07,2025-03-04 02:28:14.07
1225,12.25,12,Kabupaten Nias Barat,WIB,1.0116383,97.4814163,59,2025-03-04 02:28:14.071,2025-03-04 02:28:14.071
1271,12.71,12,Kota Medan,WIB,3.5951956,98.6722227,23,2025-03-04 02:28:14.072,2025-03-04 02:28:14.072
1272,12.72,12,Kota Pematangsiantar,WIB,2.970042,99.0681668,381,2025-03-04 02:28:14.073,2025-03-04 02:28:14.073
1273,12.73,12,Kota Sibolga,WIB,1.7368371,98.7851121,6,2025-03-04 02:28:14.077,2025-03-04 02:28:14.077
1274,12.74,12,Kota Tanjung Balai,WIB,2.9659488,99.7983506,4,2025-03-04 02:28:14.078,2025-03-04 02:28:14.078
1275,12.75,12,Kota Binjai,WIB,3.6135482,98.5025286,31,2025-03-04 02:28:14.078,2025-03-04 02:28:14.078
1276,12.76,12,Kota Tebing Tinggi,WIB,3.3262879,99.1566855,20,2025-03-04 02:28:14.079,2025-03-04 02:28:14.079
1277,12.77,12,Kota Padangsidimpuan,WIB,1.4437644,99.2563859,531,2025-03-04 02:28:14.08,2025-03-04 02:28:14.08
1278,12.78,12,Kota Gunungsitoli,WIB,1.2804692,97.6146757,16,2025-03-04 02:28:14.081,2025-03-04 02:28:14.081
1301,13.01,13,Kabupaten Pesisir Selatan,WIB,-1.7223147,100.8903099,259,2025-03-04 02:28:14.083,2025-03-04 02:28:14.083
1302,13.02,13,Kabupaten Solok,WIB,-0.9643838,100.8903099,484,2025-03-04 02:28:14.084,2025-03-04 02:28:14.084
1303,13.03,13,Kabupaten Sijunjung,WIB,-0.6647007,101.0711758,499,2025-03-04 02:28:14.084,2025-03-04 02:28:14.084
1304,13.04,13,Kabupaten Tanah Datar,WIB,-0.4797043,100.5746224,571,2025-03-04 02:28:14.085,2025-03-04 02:28:14.085
1305,13.05,13,Kabupaten Padang Pariaman,WIB,-0.5546757,100.2151578,122,2025-03-04 02:28:14.086,2025-03-04 02:28:14.086
1306,13.06,13,Kabupaten Agam,WIB,-0.2209392,100.1703257,972,2025-03-04 02:28:14.087,2025-03-04 02:28:14.087
1307,13.07,13,Kabupaten Lima Puluh Kota,WIB,0.0734192,100.5296115,390,2025-03-04 02:28:14.088,2025-03-04 02:28:14.088
1308,13.08,13,Kabupaten Pasaman,WIB,0.2209392,100.1703257,1228,2025-03-04 02:28:14.088,2025-03-04 02:28:14.088
1309,13.09,13,Kabupaten Kepulauan Mentawai,WIB,-2.1292625065662,99.573362017776,61,2025-03-04 02:28:14.089,2025-03-04 02:28:14.089
1310,13.10,13,Kabupaten Dharmasraya,WIB,-1.1120568,101.6157773,117,2025-03-04 02:28:14.09,2025-03-04 02:28:14.09
1311,13.11,13,Kabupaten Solok Selatan,WIB,-1.4157329,101.2523792,607,2025-03-04 02:28:14.094,2025-03-04 02:28:14.094
1312,13.12,13,Kabupaten Pasaman Barat,WIB,0.2213005,99.634135,19,2025-03-04 02:28:14.095,2025-03-04 02:28:14.095
1371,13.71,13,Kota Padang,WIB,-0.9470832,100.417181,57,2025-03-04 02:28:14.095,2025-03-04 02:28:14.095
1372,13.72,13,Kota Solok,WIB,-0.7885335,100.6549823,391,2025-03-04 02:28:14.096,2025-03-04 02:28:14.096
1373,13.73,13,Kota Sawahlunto,WIB,-0.5966387,100.7360203,234,2025-03-04 02:28:14.097,2025-03-04 02:28:14.097
1374,13.74,13,Kota Padang Panjang,WIB,-0.4660955,100.3984148,778,2025-03-04 02:28:14.098,2025-03-04 02:28:14.098
1375,13.75,13,Kota Bukittinggi,WIB,-0.3039178,100.383479,928,2025-03-04 02:28:14.099,2025-03-04 02:28:14.099
1376,13.76,13,Kota Payakumbuh,WIB,-0.2246548,100.6318006,514,2025-03-04 02:28:14.099,2025-03-04 02:28:14.099
1377,13.77,13,Kota Pariaman,WIB,-0.6256517,100.1233396,8,2025-03-04 02:28:14.102,2025-03-04 02:28:14.102
1401,14.01,14,Kabupaten Kampar,WIB,0.146671,101.1617356,52,2025-03-04 02:28:14.103,2025-03-04 02:28:14.103
1402,14.02,14,Kabupaten Indragiri Hulu,WIB,-0.7361181,102.2547919,43,2025-03-04 02:28:14.104,2025-03-04 02:28:14.104
1403,14.03,14,Kabupaten Bengkalis,WIB,1.4139187,101.6157773,43,2025-03-04 02:28:14.105,2025-03-04 02:28:14.105
1404,14.04,14,Kabupaten Indragiri Hilir,WIB,-0.1456733,102.989615,24,2025-03-04 02:28:14.106,2025-03-04 02:28:14.106
1405,14.05,14,Kabupaten Pelalawan,WIB,0.1460923,102.2547919,31,2025-03-04 02:28:14.106,2025-03-04 02:28:14.106
1406,14.06,14,Kabupaten Rokan Hulu,WIB,1.0410934,100.439656,37,2025-03-04 02:28:14.107,2025-03-04 02:28:14.107
1407,14.07,14,Kabupaten Rokan Hilir,WIB,1.6463978,100.8000051,21,2025-03-04 02:28:14.109,2025-03-04 02:28:14.109
1408,14.08,14,Kabupaten Siak,WIB,0.8118812,101.7979613,22,2025-03-04 02:28:14.11,2025-03-04 02:28:14.11
1409,14.09,14,Kabupaten Kuantan Singingi,WIB,-0.4411596,101.5248055,105,2025-03-04 02:28:14.111,2025-03-04 02:28:14.111
1410,14.10,14,Kabupaten Kepulauan Meranti,WIB,0.9208765,102.6675575,12,2025-03-04 02:28:14.112,2025-03-04 02:28:14.112
1471,14.71,14,Kota Pekanbaru,WIB,0.5070677,101.4477793,17,2025-03-04 02:28:14.113,2025-03-04 02:28:14.113
1472,14.72,14,Kota Dumai,WIB,1.6666349,101.4001855,7,2025-03-04 02:28:14.114,2025-03-04 02:28:14.114
1501,15.01,15,Kabupaten Kerinci,WIB,-1.8720467,101.4339148,1310,2025-03-04 02:28:14.114,2025-03-04 02:28:14.114
1502,15.02,15,Kabupaten Merangin,WIB,-2.1752789,101.9804613,299,2025-03-04 02:28:14.115,2025-03-04 02:28:14.115
1503,15.03,15,Kabupaten Sarolangun,WIB,-2.3230422,102.7135121,47,2025-03-04 02:28:14.117,2025-03-04 02:28:14.117
1504,15.04,15,Kabupaten Batanghari,WIB,-1.7083922,103.0817903,28,2025-03-04 02:28:14.118,2025-03-04 02:28:14.118
1505,15.05,15,Kabupaten Muaro Jambi,WIB,-1.47546,103.668111,21,2025-03-04 02:28:14.119,2025-03-04 02:28:14.119
1506,15.06,15,Kabupaten Tanjung Jabung Barat,WIB,-1.105846,103.0817903,15,2025-03-04 02:28:14.12,2025-03-04 02:28:14.12
1507,15.07,15,Kabupaten Tanjung Jabung Timur,WIB,-1.1024367,103.8216261,6,2025-03-04 02:28:14.121,2025-03-04 02:28:14.121
1508,15.08,15,Kabupaten Bungo,WIB,-1.6401338,101.8891721,142,2025-03-04 02:28:14.122,2025-03-04 02:28:14.122
1509,15.09,15,Kabupaten Tebo,WIB,-1.2592999,102.3463875,72,2025-03-04 02:28:14.123,2025-03-04 02:28:14.123
1571,15.71,15,Kota Jambi,WIB,-1.6101229,103.6131203,25,2025-03-04 02:28:14.128,2025-03-04 02:28:14.128
1572,15.72,15,Kota Sungai Penuh,WIB,-2.0634335,101.3947481,826,2025-03-04 02:28:14.131,2025-03-04 02:28:14.131
1601,16.01,16,Kabupaten Ogan Komering Ulu,WIB,-4.0283486,104.0072348,177,2025-03-04 02:28:14.132,2025-03-04 02:28:14.132
1602,16.02,16,Kabupaten Ogan Komering Ilir,WIB,-3.4559744,105.2194808,11,2025-03-04 02:28:14.133,2025-03-04 02:28:14.133
1603,16.03,16,Kabupaten Muara Enim,WIB,-3.6632234,103.7781606,45,2025-03-04 02:28:14.134,2025-03-04 02:28:14.134
1604,16.04,16,Kabupaten Lahat,WIB,-3.8008893,103.3587288,203,2025-03-04 02:28:14.134,2025-03-04 02:28:14.134
1605,16.05,16,Kabupaten Musi Rawas,WIB,-3.0956537,103.0817903,39,2025-03-04 02:28:14.135,2025-03-04 02:28:14.135
1606,16.06,16,Kabupaten Musi Banyuasin,WIB,-2.5442029,103.7289167,26,2025-03-04 02:28:14.136,2025-03-04 02:28:14.136
1607,16.07,16,Kabupaten Banyuasin,WIB,-2.6095639,104.7520939,6,2025-03-04 02:28:14.138,2025-03-04 02:28:14.138
1608,16.08,16,Kabupaten Ogan Komering Ulu Timur,WIB,-3.8567934,104.7520939,37,2025-03-04 02:28:14.14,2025-03-04 02:28:14.14
1609,16.09,16,Kabupaten Ogan Komering Ulu Selatan,WIB,-4.6681951,104.0072348,263,2025-03-04 02:28:14.142,2025-03-04 02:28:14.142
1610,16.10,16,Kabupaten Ogan Ilir,WIB,-3.426544,104.6121475,27,2025-03-04 02:28:14.144,2025-03-04 02:28:14.144
1611,16.11,16,Kabupaten Empat Lawang,WIB,-3.7286029,102.8975098,673,2025-03-04 02:28:14.144,2025-03-04 02:28:14.144
1612,16.12,16,Kabupaten Penukal Abab Lematang Ilir,WIB,-3.239825,104.0072348,37,2025-03-04 02:28:14.145,2025-03-04 02:28:14.145
1613,16.13,16,Kabupaten Musi Rawas Utara,WIB,-2.787759,102.7135121,73,2025-03-04 02:28:14.146,2025-03-04 02:28:14.146
1671,16.71,16,Kota Palembang,WIB,-2.9760735,104.7754307,7,2025-03-04 02:28:14.147,2025-03-04 02:28:14.147
1672,16.72,16,Kota Pagar Alam,WIB,-4.0419617,103.2278845,793,2025-03-04 02:28:14.147,2025-03-04 02:28:14.147
1673,16.73,16,Kota Lubuk Linggau,WIB,-3.2995858,102.857236,144,2025-03-04 02:28:14.148,2025-03-04 02:28:14.148
1674,16.74,16,Kota Prabumulih,WIB,-3.4213707,104.2436833,50,2025-03-04 02:28:14.152,2025-03-04 02:28:14.152
1701,17.01,17,Kabupaten Bengkulu Selatan,WIB,-3.5778471,102.3463875,121,2025-03-04 02:28:14.152,2025-03-04 02:28:14.152
1702,17.02,17,Kabupaten Rejang Lebong,WIB,-3.4548154,102.6675575,1040,2025-03-04 02:28:14.153,2025-03-04 02:28:14.153
1703,17.03,17,Kabupaten Bengkulu Utara,WIB,-3.2663246,101.9804613,100,2025-03-04 02:28:14.154,2025-03-04 02:28:14.154
1704,17.04,17,Kabupaten Kaur,WIB,-4.5215978,103.2663479,185,2025-03-04 02:28:14.155,2025-03-04 02:28:14.155
1705,17.05,17,Kabupaten Seluma,WIB,-4.0499387,102.7135121,199,2025-03-04 02:28:14.155,2025-03-04 02:28:14.155
1706,17.06,17,Kabupaten Muko Muko,WIB,-2.6449114,101.4339148,166,2025-03-04 02:28:14.156,2025-03-04 02:28:14.156
1707,17.07,17,Kabupaten Lebong,WIB,-3.1455094,102.2090224,411,2025-03-04 02:28:14.157,2025-03-04 02:28:14.157
1708,17.08,17,Kabupaten Kepahiang,WIB,-3.6130091,102.6675575,961,2025-03-04 02:28:14.158,2025-03-04 02:28:14.158
1709,17.09,17,Kabupaten Bengkulu Tengah,WIB,-3.5778471,102.3463875,121,2025-03-04 02:28:14.158,2025-03-04 02:28:14.158
1771,17.71,17,Kota Bengkulu,WIB,-3.7928451,102.2607641,22,2025-03-04 02:28:14.159,2025-03-04 02:28:14.159
1801,18.01,18,Kabupaten Lampung Selatan,WIB,-5.5622614,105.5474373,28,2025-03-04 02:28:14.16,2025-03-04 02:28:14.16
1802,18.02,18,Kabupaten Lampung Tengah,WIB,-4.5585849,105.4068079,24,2025-03-04 02:28:14.161,2025-03-04 02:28:14.161
1803,18.03,18,Kabupaten Lampung Utara,WIB,-4.5585849,105.4068079,24,2025-03-04 02:28:14.162,2025-03-04 02:28:14.162
1804,18.04,18,Kabupaten Lampung Barat,WIB,-4.5585849,105.4068079,24,2025-03-04 02:28:14.163,2025-03-04 02:28:14.163
1805,18.05,18,Kabupaten Tulang Bawang,WIB,-4.3176576,105.5005483,25,2025-03-04 02:28:14.164,2025-03-04 02:28:14.164
1806,18.06,18,Kabupaten Tanggamus,WIB,-5.3027489,104.5655273,900,2025-03-04 02:28:14.164,2025-03-04 02:28:14.164
1807,18.07,18,Kabupaten Lampung Timur,WIB,-4.5585849,105.4068079,24,2025-03-04 02:28:14.166,2025-03-04 02:28:14.166
1808,18.08,18,Kabupaten Way Kanan,WIB,-4.4963689,104.5655273,98,2025-03-04 02:28:14.166,2025-03-04 02:28:14.166
1809,18.09,18,Kabupaten Pesawaran,WIB,-5.4680885,105.0192148,195,2025-03-04 02:28:14.167,2025-03-04 02:28:14.167
1810,18.10,18,Kabupaten Pringsewu,WIB,-5.3331186,104.9856176,96,2025-03-04 02:28:14.168,2025-03-04 02:28:14.168
1811,18.11,18,Kabupaten Mesuji,WIB,-4.0044783,105.3131185,33,2025-03-04 02:28:14.169,2025-03-04 02:28:14.169
1812,18.12,18,Kabupaten Tulang Bawang Barat,WIB,-4.5256967,105.0791228,38,2025-03-04 02:28:14.17,2025-03-04 02:28:14.17
1813,18.13,18,Kabupaten Pesisir Barat,WIB,-5.2928191,104.1233667,273,2025-03-04 02:28:14.171,2025-03-04 02:28:14.171
1871,18.71,18,Kota Bandar Lampung,WIB,-5.3971396,105.2667887,102,2025-03-04 02:28:14.172,2025-03-04 02:28:14.172
1872,18.72,18,Kota Metro,WIB,-5.1178394,105.3072646,57,2025-03-04 02:28:14.172,2025-03-04 02:28:14.172
1901,19.01,19,Kabupaten Bangka,WIB,-1.874294,105.92299,70,2025-03-04 02:28:14.173,2025-03-04 02:28:14.173
1902,19.02,19,Kabupaten Belitung,WIB,-2.7216743,107.763621,48,2025-03-04 02:28:14.174,2025-03-04 02:28:14.174
1903,19.03,19,Kabupaten Bangka Selatan,WIB,-2.7410513,106.4405872,29,2025-03-04 02:28:14.175,2025-03-04 02:28:14.175
1904,19.04,19,Kabupaten Bangka Tengah,WIB,-2.4007823,106.2051484,19,2025-03-04 02:28:14.176,2025-03-04 02:28:14.176
1905,19.05,19,Kabupaten Bangka Barat,WIB,-1.8405046,105.5005483,7,2025-03-04 02:28:14.177,2025-03-04 02:28:14.177
1906,19.06,19,Kabupaten Belitung Timur,WIB,-2.8678037,108.1428669,20,2025-03-04 02:28:14.177,2025-03-04 02:28:14.177
1971,19.71,19,Kota Pangkal Pinang,WIB,-2.1316266,106.1169299,4,2025-03-04 02:28:14.178,2025-03-04 02:28:14.178
2101,21.01,21,Kabupaten Bintan,WIB,1.0619173,104.5189214,26,2025-03-04 02:28:14.179,2025-03-04 02:28:14.179
2102,21.02,21,Kabupaten Karimun,WIB,0.7697665,103.4049445,35,2025-03-04 02:28:14.179,2025-03-04 02:28:14.179
2103,21.03,21,Kabupaten Natuna,WIB,4,108.25,56,2025-03-04 02:28:14.181,2025-03-04 02:28:14.181
2104,21.04,21,Kabupaten Lingga,WIB,-0.4726065,104.4257533,62,2025-03-04 02:28:14.182,2025-03-04 02:28:14.182
2105,21.05,21,Kabupaten Kepulauan Anambas,WIB,3.1055459,105.6537231,101,2025-03-04 02:28:14.184,2025-03-04 02:28:14.184
2171,21.71,21,Kota Batam,WIB,1.1261413,104.0408632,7,2025-03-04 02:28:14.184,2025-03-04 02:28:14.184
2172,21.72,21,Kota Tanjung Pinang,WIB,0.9185504,104.4665072,1,2025-03-04 02:28:14.185,2025-03-04 02:28:14.185
3101,31.01,31,Kabupaten Administarsi Kepulauan Seribu,WIB,-5.7392014,106.5996686,5,2025-03-04 02:28:14.186,2025-03-04 02:28:14.186
3171,31.71,31,Jakarta Pusat,WIB,-6.1876883,106.8162264,11,2025-03-04 02:28:14.186,2025-03-04 02:28:14.186
3172,31.72,31,Jakarta Utara,WIB,-6.1554057,106.8926634,-2,2025-03-04 02:28:14.187,2025-03-04 02:28:14.187
3173,31.73,31,Jakarta Barat,WIB,-6.1876883,106.8162264,11,2025-03-04 02:28:14.188,2025-03-04 02:28:14.188
3174,31.74,31,Jakarta Selatan,WIB,-6.1876883,106.8162264,11,2025-03-04 02:28:14.192,2025-03-04 02:28:14.192
3175,31.75,31,Jakarta Timur,WIB,-6.2250138,106.9004472,16,2025-03-04 02:28:14.193,2025-03-04 02:28:14.193
3201,32.01,32,Kabupaten Bogor,WIB,-6.5517758,106.6291304,171,2025-03-04 02:28:14.193,2025-03-04 02:28:14.193
3202,32.02,32,Kabupaten Sukabumi,WIB,-6.8791499,106.9474101,880,2025-03-04 02:28:14.194,2025-03-04 02:28:14.194
3203,32.03,32,Kabupaten Cianjur,WIB,-7.3579773,107.1957203,117,2025-03-04 02:28:14.195,2025-03-04 02:28:14.195
3204,32.04,32,Kabupaten Bandung,WIB,-7.1340702,107.6215321,1942,2025-03-04 02:28:14.196,2025-03-04 02:28:14.196
3205,32.05,32,Kabupaten Garut,WIB,-7.5012204,107.763621,968,2025-03-04 02:28:14.196,2025-03-04 02:28:14.196
3206,32.06,32,Kabupaten Tasikmalaya,WIB,-7.6513306,108.1428669,254,2025-03-04 02:28:14.197,2025-03-04 02:28:14.197
3207,32.07,32,Kabupaten Ciamis,WIB,-7.3320773,108.3492543,218,2025-03-04 02:28:14.198,2025-03-04 02:28:14.198
3208,32.08,32,Kabupaten Kuningan,WIB,-6.9810103,108.4928912,488,2025-03-04 02:28:14.204,2025-03-04 02:28:14.204
3209,32.09,32,Kabupaten Cirebon,WIB,-6.6898876,108.4750846,16,2025-03-04 02:28:14.205,2025-03-04 02:28:14.205
3210,32.10,32,Kabupaten Majalengka,WIB,-6.7790605,108.2852049,73,2025-03-04 02:28:14.206,2025-03-04 02:28:14.206
3211,32.11,32,Kabupaten Sumedang,WIB,-6.832858,107.9531836,545,2025-03-04 02:28:14.206,2025-03-04 02:28:14.206
3212,32.12,32,Kabupaten Indramayu,WIB,-6.3488982,108.3287361,0,2025-03-04 02:28:14.207,2025-03-04 02:28:14.207
3213,32.13,32,Kabupaten Subang,WIB,-6.3487617,107.763621,12,2025-03-04 02:28:14.207,2025-03-04 02:28:14.207
3214,32.14,32,Kabupaten Purwakarta,WIB,-6.5649241,107.4321959,101,2025-03-04 02:28:14.208,2025-03-04 02:28:14.208
3215,32.15,32,Kabupaten Karawang,WIB,-6.3227303,107.3375791,13,2025-03-04 02:28:14.209,2025-03-04 02:28:14.209
3216,32.16,32,Kabupaten Bekasi,WIB,-6.366723,107.1735638,53,2025-03-04 02:28:14.21,2025-03-04 02:28:14.21
3217,32.17,32,Kabupaten Bandung Barat,WIB,-6.8652214,107.4919767,668,2025-03-04 02:28:14.211,2025-03-04 02:28:14.211
3218,32.18,32,Kabupaten Pangandaran,WIB,-7.6150611,108.4988269,151,2025-03-04 02:28:14.212,2025-03-04 02:28:14.212
3271,32.71,32,Kota Bogor,WIB,-6.5971469,106.8060388,263,2025-03-04 02:28:14.213,2025-03-04 02:28:14.213
3272,32.72,32,Kota Sukabumi,WIB,-6.9277361,106.9299579,575,2025-03-04 02:28:14.213,2025-03-04 02:28:14.213
3273,32.73,32,Kota Bandung,WIB,-6.885969,107.616301,776,2025-03-04 02:28:14.214,2025-03-04 02:28:14.214
3274,32.74,32,Kota Cirebon,WIB,-6.7320229,108.5523164,7,2025-03-04 02:28:14.215,2025-03-04 02:28:14.215
3275,32.75,32,Kota Bekasi,WIB,-6.2733758,106.9830865,23,2025-03-04 02:28:14.216,2025-03-04 02:28:14.216
3276,32.76,32,Kota Depok,WIB,-6.4024844,106.7942405,86,2025-03-04 02:28:14.216,2025-03-04 02:28:14.216
3277,32.77,32,Kota Cimahi,WIB,-6.8840816,107.5413039,748,2025-03-04 02:28:14.217,2025-03-04 02:28:14.217
3278,32.78,32,Kota Tasikmalaya,WIB,-7.3505808,108.2171633,358,2025-03-04 02:28:14.218,2025-03-04 02:28:14.218
3279,32.79,32,Kota Banjar,WIB,-7.3706874,108.5342487,38,2025-03-04 02:28:14.218,2025-03-04 02:28:14.218
3301,33.01,33,Kabupaten Cilacap,WIB,-7.6982991,109.023521,8,2025-03-04 02:28:14.219,2025-03-04 02:28:14.219
3302,33.02,33,Kabupaten Banyumas,WIB,-7.4832133,109.140438,87,2025-03-04 02:28:14.22,2025-03-04 02:28:14.22
3303,33.03,33,Kabupaten Purbalingga,WIB,-7.3058578,109.4259114,149,2025-03-04 02:28:14.221,2025-03-04 02:28:14.221
3304,33.04,33,Kabupaten Banjarnegara,WIB,-7.3794368,109.6163185,230,2025-03-04 02:28:14.222,2025-03-04 02:28:14.222
3305,33.05,33,Kabupaten Kebumen,WIB,-7.6709292,109.6608012,27,2025-03-04 02:28:14.222,2025-03-04 02:28:14.222
3306,33.06,33,Kabupaten Purworejo,WIB,-7.6964509,109.9989416,46,2025-03-04 02:28:14.223,2025-03-04 02:28:14.223
3307,33.07,33,Kabupaten Wonosobo,WIB,-7.3684995,109.8984085,764,2025-03-04 02:28:14.224,2025-03-04 02:28:14.224
3308,33.08,33,Kabupaten Magelang,WIB,-7.4305237,110.2832217,477,2025-03-04 02:28:14.224,2025-03-04 02:28:14.224
3309,33.09,33,Kabupaten Boyolali,WIB,-7.4317773,110.6883536,184,2025-03-04 02:28:14.225,2025-03-04 02:28:14.225
3310,33.10,33,Kabupaten Klaten,WIB,-7.7034032,110.6005039,168,2025-03-04 02:28:14.226,2025-03-04 02:28:14.226
3311,33.11,33,Kabupaten Sukoharjo,WIB,-7.6813417,110.8320626,100,2025-03-04 02:28:14.227,2025-03-04 02:28:14.227
3312,33.12,33,Kabupaten Wonogiri,WIB,-7.8137085,110.9239477,137,2025-03-04 02:28:14.227,2025-03-04 02:28:14.227
3313,33.13,33,Kabupaten Karanganyar,WIB,-7.6387228,111.0460407,410,2025-03-04 02:28:14.228,2025-03-04 02:28:14.228
3314,33.14,33,Kabupaten Sragen,WIB,-7.43027,111.0091855,85,2025-03-04 02:28:14.229,2025-03-04 02:28:14.229
3315,33.15,33,Kabupaten Grobogan,WIB,-7.1541672,110.9506636,46,2025-03-04 02:28:14.229,2025-03-04 02:28:14.229
3316,33.16,33,Kabupaten Blora,WIB,-6.9691276,111.4186704,90,2025-03-04 02:28:14.231,2025-03-04 02:28:14.231
3317,33.17,33,Kabupaten Rembang,WIB,-6.8082115,111.4275888,43,2025-03-04 02:28:14.232,2025-03-04 02:28:14.232
3318,33.18,33,Kabupaten Pati,WIB,-6.7449635,111.0460407,14,2025-03-04 02:28:14.233,2025-03-04 02:28:14.233
3319,33.19,33,Kabupaten Kudus,WIB,-6.7726186,110.8791343,50,2025-03-04 02:28:14.233,2025-03-04 02:28:14.233
3320,33.20,33,Kabupaten Jepara,WIB,-6.582711,110.6786933,9,2025-03-04 02:28:14.234,2025-03-04 02:28:14.234
3321,33.21,33,Kabupaten Demak,WIB,-6.9238879,110.6645683,6,2025-03-04 02:28:14.235,2025-03-04 02:28:14.235
3322,33.22,33,Kabupaten Semarang,WIB,-7.1764785,110.4738762,343,2025-03-04 02:28:14.236,2025-03-04 02:28:14.236
3323,33.23,33,Kabupaten Temanggung,WIB,-7.3173282,110.1804877,579,2025-03-04 02:28:14.237,2025-03-04 02:28:14.237
3324,33.24,33,Kabupaten Kendal,WIB,-7.0265442,110.1879106,101,2025-03-04 02:28:14.237,2025-03-04 02:28:14.237
3325,33.25,33,Kabupaten Batang,WIB,-7.032551,109.7986045,383,2025-03-04 02:28:14.238,2025-03-04 02:28:14.238
3326,33.26,33,Kabupaten Pekalongan,WIB,-7.0517128,109.6163185,125,2025-03-04 02:28:14.239,2025-03-04 02:28:14.239
3327,33.27,33,Kabupaten Pemalang,WIB,-6.8899072,109.3824243,10,2025-03-04 02:28:14.24,2025-03-04 02:28:14.24
3328,33.28,33,Kabupaten Tegal,WIB,-6.9902371,109.140438,44,2025-03-04 02:28:14.242,2025-03-04 02:28:14.242
3329,33.29,33,Kabupaten Brebes,WIB,-6.9591793,108.902683,16,2025-03-04 02:28:14.243,2025-03-04 02:28:14.243
3371,33.71,33,Kota Magelang,WIB,-7.4797342,110.2176941,383,2025-03-04 02:28:14.244,2025-03-04 02:28:14.244
3372,33.72,33,Kota Surakarta,WIB,-7.5754887,110.8243272,96,2025-03-04 02:28:14.245,2025-03-04 02:28:14.245
3373,33.73,33,Kota Salatiga,WIB,-7.3305234,110.5084366,602,2025-03-04 02:28:14.246,2025-03-04 02:28:14.246
3374,33.74,33,Kota Semarang,WIB,-7.0051453,110.4381254,12,2025-03-04 02:28:14.246,2025-03-04 02:28:14.246
3375,33.75,33,Kota Pekalongan,WIB,-6.8898362,109.6745916,9,2025-03-04 02:28:14.247,2025-03-04 02:28:14.247
3376,33.76,33,Kota Tegal,WIB,-6.8797041,109.1255917,8,2025-03-04 02:28:14.247,2025-03-04 02:28:14.247
3401,34.01,34,Kabupaten Kulon Progo,WIB,-7.8266798,110.1640846,33,2025-03-04 02:28:14.248,2025-03-04 02:28:14.248
3402,34.02,34,Kabupaten Bantul,WIB,-7.8926361,110.3347369,45,2025-03-04 02:28:14.251,2025-03-04 02:28:14.251
3403,34.03,34,Kabupaten Gunungkidul,WIB,-8.0305091,110.6168921,148,2025-03-04 02:28:14.252,2025-03-04 02:28:14.252
3404,34.04,34,Kabupaten Sleman,WIB,-7.7651539,110.3443652,134,2025-03-04 02:28:14.252,2025-03-04 02:28:14.252
3471,34.71,34,Kota Yogyakarta,WIB,-7.7955798,110.3694896,106,2025-03-04 02:28:14.253,2025-03-04 02:28:14.253
3501,35.01,35,Kabupaten Pacitan,WIB,-8.1850094,111.1031849,20,2025-03-04 02:28:14.255,2025-03-04 02:28:14.255
3502,35.02,35,Kabupaten Ponorogo,WIB,-7.864919,111.4610988,102,2025-03-04 02:28:14.255,2025-03-04 02:28:14.255
3503,35.03,35,Kabupaten Trenggalek,WIB,-8.0505332,111.7090207,114,2025-03-04 02:28:14.256,2025-03-04 02:28:14.256
3504,35.04,35,Kabupaten Tulungagung,WIB,-8.0598265,111.9073351,92,2025-03-04 02:28:14.257,2025-03-04 02:28:14.257
3505,35.05,35,Kabupaten Blitar,WIB,-8.0954627,112.1609056,178,2025-03-04 02:28:14.258,2025-03-04 02:28:14.258
3506,35.06,35,Kabupaten Kediri,WIB,-7.8232397,112.1907122,207,2025-03-04 02:28:14.263,2025-03-04 02:28:14.263
3507,35.07,35,Kabupaten Malang,WIB,-8.242209,112.7152125,379,2025-03-04 02:28:14.264,2025-03-04 02:28:14.264
3508,35.08,35,Kabupaten Lumajang,WIB,-8.0943571,113.1441558,243,2025-03-04 02:28:14.268,2025-03-04 02:28:14.268
3509,35.09,35,Kabupaten Jember,WIB,-8.1844859,113.6680747,76,2025-03-04 02:28:14.269,2025-03-04 02:28:14.269
3510,35.10,35,Kabupaten Banyuwangi,WIB,-8.2190944,114.3691416,19,2025-03-04 02:28:14.27,2025-03-04 02:28:14.27
3511,35.11,35,Kabupaten Bondowoso,WIB,-7.9145047,113.8232058,259,2025-03-04 02:28:14.271,2025-03-04 02:28:14.271
3512,35.12,35,Kabupaten Situbondo,WIB,-7.7058776,114.0059842,33,2025-03-04 02:28:14.272,2025-03-04 02:28:14.272
3513,35.13,35,Kabupaten Probolinggo,WIB,-7.8717562,113.4776098,476,2025-03-04 02:28:14.273,2025-03-04 02:28:14.273
3514,35.14,35,Kabupaten Pasuruan,WIB,-7.7859961,112.858217,244,2025-03-04 02:28:14.274,2025-03-04 02:28:14.274
3515,35.15,35,Kabupaten Sidoarjo,WIB,-7.4509979,112.715437,5,2025-03-04 02:28:14.274,2025-03-04 02:28:14.274
3516,35.16,35,Kabupaten Mojokerto,WIB,-7.563831,112.4768287,85,2025-03-04 02:28:14.275,2025-03-04 02:28:14.275
3517,35.17,35,Kabupaten Jombang,WIB,-7.5740867,112.28609,42,2025-03-04 02:28:14.276,2025-03-04 02:28:14.276
3518,35.18,35,Kabupaten Nganjuk,WIB,-7.5943507,111.9045541,59,2025-03-04 02:28:14.277,2025-03-04 02:28:14.277
3519,35.19,35,Kabupaten Madiun,WIB,-7.6093306,111.6183755,89,2025-03-04 02:28:14.278,2025-03-04 02:28:14.278
3520,35.20,35,Kabupaten Magetan,WIB,-7.6433138,111.356045,271,2025-03-04 02:28:14.279,2025-03-04 02:28:14.279
3521,35.21,35,Kabupaten Ngawi,WIB,-7.4068693,111.431658,52,2025-03-04 02:28:14.279,2025-03-04 02:28:14.279
3522,35.22,35,Kabupaten Bojonegoro,WIB,-7.1595292,111.8817607,22,2025-03-04 02:28:14.281,2025-03-04 02:28:14.281
3523,35.23,35,Kabupaten Tuban,WIB,-6.8949099,112.0416754,8,2025-03-04 02:28:14.283,2025-03-04 02:28:14.283
3524,35.24,35,Kabupaten Lamongan,WIB,-7.1269261,112.3337769,10,2025-03-04 02:28:14.284,2025-03-04 02:28:14.284
3525,35.25,35,Kabupaten Gresik,WIB,-7.1650131,112.6393997,32,2025-03-04 02:28:14.285,2025-03-04 02:28:14.285
3526,35.26,35,Kabupaten Bangkalan,WIB,-7.038375,112.9136695,124,2025-03-04 02:28:14.285,2025-03-04 02:28:14.285
3527,35.27,35,Kabupaten Sampang,WIB,-7.0402326,113.2394452,115,2025-03-04 02:28:14.286,2025-03-04 02:28:14.286
3528,35.28,35,Kabupaten Pamekasan,WIB,-7.1050857,113.5252319,112,2025-03-04 02:28:14.287,2025-03-04 02:28:14.287
3529,35.29,35,Kabupaten Sumenep,WIB,-6.9253999,113.9060624,82,2025-03-04 02:28:14.287,2025-03-04 02:28:14.287
3571,35.71,35,Kota Kediri,WIB,-7.8480156,112.0178286,77,2025-03-04 02:28:14.288,2025-03-04 02:28:14.288
3572,35.72,35,Kota Blitar,WIB,-8.0954627,112.1609056,178,2025-03-04 02:28:14.294,2025-03-04 02:28:14.294
3573,35.73,35,Kota Malang,WIB,-7.99338,112.6199246,440,2025-03-04 02:28:14.294,2025-03-04 02:28:14.294
3574,35.74,35,Kota Probolinggo,WIB,-7.7764226,113.2037131,26,2025-03-04 02:28:14.295,2025-03-04 02:28:14.295
3575,35.75,35,Kota Pasuruan,WIB,-7.6469193,112.8999225,8,2025-03-04 02:28:14.296,2025-03-04 02:28:14.296
3576,35.76,35,Kota Mojokerto,WIB,-7.4704747,112.4401329,26,2025-03-04 02:28:14.297,2025-03-04 02:28:14.297
3577,35.77,35,Kota Madiun,WIB,-7.6310587,111.5300159,68,2025-03-04 02:28:14.298,2025-03-04 02:28:14.298
3578,35.78,35,Kota Surabaya,WIB,-7.225452,112.7596424,5,2025-03-04 02:28:14.302,2025-03-04 02:28:14.302
3579,35.79,35,Kota Batu,WIB,-7.8739658,112.5224563,922,2025-03-04 02:28:14.303,2025-03-04 02:28:14.303
3601,36.01,36,Kabupaten Pandeglang,WIB,-6.7482706,105.6881788,156,2025-03-04 02:28:14.303,2025-03-04 02:28:14.303
3602,36.02,36,Kabupaten Lebak,WIB,-6.5643956,106.2522143,161,2025-03-04 02:28:14.304,2025-03-04 02:28:14.304
3603,36.03,36,Kabupaten Tangerang,WIB,-6.1870007,106.487658,23,2025-03-04 02:28:14.305,2025-03-04 02:28:14.305
3604,36.04,36,Kabupaten Serang,WIB,-6.1397339,106.040506,216,2025-03-04 02:28:14.306,2025-03-04 02:28:14.306
3671,36.71,36,Kota Tangerang,WIB,-6.1701796,106.6403236,11,2025-03-04 02:28:14.307,2025-03-04 02:28:14.307
3672,36.72,36,Kota Cilegon,WIB,-6.0186516,106.0558218,23,2025-03-04 02:28:14.307,2025-03-04 02:28:14.307
3673,36.73,36,Kota Serang,WIB,-6.1169309,106.1538519,29,2025-03-04 02:28:14.308,2025-03-04 02:28:14.308
3674,36.74,36,Kota Tangerang Selatan,WIB,-6.2835218,106.7112933,39,2025-03-04 02:28:14.31,2025-03-04 02:28:14.31
5101,51.01,51,Kabupaten Jembrana,WITA,-8.3648684,114.6197019,9,2025-03-04 02:28:14.311,2025-03-04 02:28:14.311
5102,51.02,51,Kabupaten Tabanan,WITA,-8.4595561,115.0465991,246,2025-03-04 02:28:14.312,2025-03-04 02:28:14.312
5103,51.03,51,Kabupaten Badung,WITA,-8.5819296,115.1770586,101,2025-03-04 02:28:14.313,2025-03-04 02:28:14.313
5104,51.04,51,Kabupaten Gianyar,WITA,-8.5414995,115.3273374,131,2025-03-04 02:28:14.314,2025-03-04 02:28:14.314
5105,51.05,51,Kabupaten Klungkung,WITA,-8.727807,115.5444231,487,2025-03-04 02:28:14.315,2025-03-04 02:28:14.315
5106,51.06,51,Kabupaten Bangli,WITA,-8.2975884,115.3548713,1173,2025-03-04 02:28:14.316,2025-03-04 02:28:14.316
5107,51.07,51,Kabupaten Karangasem,WITA,-8.3465933,115.5207358,2513,2025-03-04 02:28:14.317,2025-03-04 02:28:14.317
5108,51.08,51,Kabupaten Buleleng,WITA,-8.2238968,114.9516869,123,2025-03-04 02:28:14.318,2025-03-04 02:28:14.318
5171,51.71,51,Kota Denpasar,WITA,-8.6588998,115.2385405,22,2025-03-04 02:28:14.318,2025-03-04 02:28:14.318
5201,52.01,52,Kabupaten Lombok Barat,WITA,-8.6464599,116.1123078,21,2025-03-04 02:28:14.319,2025-03-04 02:28:14.319
5202,52.02,52,Kabupaten Lombok Tengah,WITA,-8.694623,116.2777073,125,2025-03-04 02:28:14.32,2025-03-04 02:28:14.32
5203,52.03,52,Kabupaten Lombok Timur,WITA,-8.5134471,116.5609857,474,2025-03-04 02:28:14.321,2025-03-04 02:28:14.321
5204,52.04,52,Kabupaten Sumbawa,WITA,-8.6529334,117.3616476,456,2025-03-04 02:28:14.322,2025-03-04 02:28:14.322
5205,52.05,52,Kabupaten Dompu,WITA,-8.5363958,118.3461948,112,2025-03-04 02:28:14.322,2025-03-04 02:28:14.322
5206,52.06,52,Kabupaten Bima,WITA,-8.1388549,117.7709799,12,2025-03-04 02:28:14.323,2025-03-04 02:28:14.323
5207,52.07,52,Kabupaten Sumbawa Barat,WITA,-8.9292907,116.8910342,478,2025-03-04 02:28:14.324,2025-03-04 02:28:14.324
5208,52.08,52,Kabupaten Lombok Utara,WITA,-8.3739076,116.2777073,703,2025-03-04 02:28:14.325,2025-03-04 02:28:14.325
5271,52.71,52,Kota Mataram,WITA,-8.5970808,116.1004894,15,2025-03-04 02:28:14.326,2025-03-04 02:28:14.326
5272,52.72,52,Kota Bima,WITA,-8.4642661,118.7449028,19,2025-03-04 02:28:14.326,2025-03-04 02:28:14.326
5301,53.01,53,Kabupaten Kupang,WITA,-9.9906166,123.8857747,476,2025-03-04 02:28:14.327,2025-03-04 02:28:14.327
5302,53.02,53,Kab Timor Tengah Selatan,WITA,-9.7762816,124.4198243,491,2025-03-04 02:28:14.331,2025-03-04 02:28:14.331
5303,53.03,53,Kabupaten Timor Tengah Utara,WITA,-9.4522647,124.597132,447,2025-03-04 02:28:14.332,2025-03-04 02:28:14.332
5304,53.04,53,Kabupaten Belu,WITA,-9.1538978,124.906551,382,2025-03-04 02:28:14.333,2025-03-04 02:28:14.333
5305,53.05,53,Kabupaten Alor,WITA,-8.2928427,124.5528387,485,2025-03-04 02:28:14.334,2025-03-04 02:28:14.334
5306,53.06,53,Kabupaten Flores Timur,WITA,-8.3130942,122.9663018,1410,2025-03-04 02:28:14.334,2025-03-04 02:28:14.334
5307,53.07,53,Kabupaten Sikka,WITA,-8.6766175,122.1291843,318,2025-03-04 02:28:14.335,2025-03-04 02:28:14.335
5308,53.08,53,Kabupaten Ende,WITA,-8.6762912,121.7195459,338,2025-03-04 02:28:14.336,2025-03-04 02:28:14.336
5309,53.09,53,Kabupaten Ngada,WITA,-8.7430424,120.9876321,1125,2025-03-04 02:28:14.337,2025-03-04 02:28:14.337
5310,53.10,53,Kabupaten Manggarai,WITA,-8.6796987,120.3896651,729,2025-03-04 02:28:14.337,2025-03-04 02:28:14.337
5311,53.11,53,Kabupaten Sumba Timur,WITA,-9.9802103,120.3435506,793,2025-03-04 02:28:14.338,2025-03-04 02:28:14.338
5312,53.12,53,Kabupaten Sumba Barat,WITA,-9.6548326,119.3947135,435,2025-03-04 02:28:14.339,2025-03-04 02:28:14.339
5313,53.13,53,Kabupaten Lembata,WITA,-8.4719075,123.4831906,641,2025-03-04 02:28:14.339,2025-03-04 02:28:14.339
5314,53.14,53,Kabupaten Rote Ndao,WITA,-10.7386421,123.1239049,231,2025-03-04 02:28:14.342,2025-03-04 02:28:14.342
5315,53.15,53,Kabupaten Manggarai Barat,WITA,-8.6688149,120.0665236,400,2025-03-04 02:28:14.342,2025-03-04 02:28:14.342
5316,53.16,53,Kabupaten Nagekeo,WITA,-8.6753545,121.3084088,518,2025-03-04 02:28:14.343,2025-03-04 02:28:14.343
5317,53.17,53,Kabupaten Sumba Tengah,WITA,-9.4879226,119.6962677,412,2025-03-04 02:28:14.344,2025-03-04 02:28:14.344
5318,53.18,53,Kabupaten Sumba Barat Daya,WITA,-9.539139,119.1390642,330,2025-03-04 02:28:14.345,2025-03-04 02:28:14.345
5319,53.19,53,Kabupaten Manggarai Timur,WITA,-8.6206712,120.6199895,1546,2025-03-04 02:28:14.345,2025-03-04 02:28:14.345
5320,53.20,53,Kabupaten Sabu Raijua,WITA,-10.5541116,121.8334868,157,2025-03-04 02:28:14.346,2025-03-04 02:28:14.346
5321,53.21,53,Kabupaten Malaka,WITA,-9.5308587,124.906551,224,2025-03-04 02:28:14.347,2025-03-04 02:28:14.347
5371,53.71,53,Kota Kupang,WITA,-10.1771997,123.6070329,103,2025-03-04 02:28:14.348,2025-03-04 02:28:14.348
6101,61.01,61,Kabupaten Sambas,WIB,1.3625191,109.2831531,3,2025-03-04 02:28:14.351,2025-03-04 02:28:14.351
6102,61.02,61,Kabupaten Mempawah,WIB,0.3897139,109.140438,17,2025-03-04 02:28:14.352,2025-03-04 02:28:14.352
6103,61.03,61,Kabupaten Sanggau,WIB,0.1400117,110.5215459,123,2025-03-04 02:28:14.353,2025-03-04 02:28:14.353
6104,61.04,61,Kabupaten Ketapang,WIB,-1.5697615,110.5215459,19,2025-03-04 02:28:14.353,2025-03-04 02:28:14.353
6105,61.05,61,Kabupaten Sintang,WIB,-0.1378068,112.8105512,595,2025-03-04 02:28:14.354,2025-03-04 02:28:14.354
6106,61.06,61,Kabupaten Kapuas Hulu,WIB,0.8336697,113.0011989,40,2025-03-04 02:28:14.355,2025-03-04 02:28:14.355
6107,61.07,61,Kabupaten Bengkayang,WIB,0.8304898,109.4848335,83,2025-03-04 02:28:14.362,2025-03-04 02:28:14.362
6108,61.08,61,Kabupaten Landak,WIB,0.4237287,109.7591675,45,2025-03-04 02:28:14.363,2025-03-04 02:28:14.363
6109,61.09,61,Kabupaten Sekadau,WIB,-0.0697175,110.9983515,35,2025-03-04 02:28:14.363,2025-03-04 02:28:14.363
6110,61.10,61,Kabupaten Melawi,WIB,-0.7000681,111.6660725,82,2025-03-04 02:28:14.364,2025-03-04 02:28:14.364
6111,61.11,61,Kabupaten Kayong Utara,WIB,-0.9225877,110.0449662,27,2025-03-04 02:28:14.365,2025-03-04 02:28:14.365
6112,61.12,61,Kabupaten Kubu Raya,WIB,-0.3533938,109.4735066,11,2025-03-04 02:28:14.365,2025-03-04 02:28:14.365
6171,61.71,61,Kota Pontianak,WIB,-0.0263303,109.3425039,7,2025-03-04 02:28:14.366,2025-03-04 02:28:14.366
6172,61.72,61,Kota Singkawang,WIB,0.9060204,108.9872049,5,2025-03-04 02:28:14.367,2025-03-04 02:28:14.367
6201,62.01,62,Kabupaten Kotawaringin Barat,WIB,-2.5063419,111.7614661,20,2025-03-04 02:28:14.367,2025-03-04 02:28:14.367
6202,62.02,62,Kabupaten Kotawaringin Timur,WIB,-2.1225475,112.8105512,15,2025-03-04 02:28:14.368,2025-03-04 02:28:14.368
6203,62.03,62,Kabupaten Kapuas,WIB,-1.8116445,114.3341432,26,2025-03-04 02:28:14.369,2025-03-04 02:28:14.369
6204,62.04,62,Kabupaten Barito Selatan,WIB,-1.875943,114.8092691,19,2025-03-04 02:28:14.37,2025-03-04 02:28:14.37
6205,62.05,62,Kabupaten Barito Utara,WIB,-0.9587136,115.094045,50,2025-03-04 02:28:14.371,2025-03-04 02:28:14.371
6206,62.06,62,Kabupaten Katingan,WIB,-0.9758379,112.8105512,96,2025-03-04 02:28:14.372,2025-03-04 02:28:14.372
6207,62.07,62,Kabupaten Seruyan,WIB,-3.0123467,112.4291464,6,2025-03-04 02:28:14.373,2025-03-04 02:28:14.373
6208,62.08,62,Kabupaten Sukamara,WIB,-2.6267517,111.2368084,20,2025-03-04 02:28:14.374,2025-03-04 02:28:14.374
6209,62.09,62,Kabupaten Lamandau,WIB,-1.8526377,111.2845025,106,2025-03-04 02:28:14.377,2025-03-04 02:28:14.377
6210,62.10,62,Kabupaten Gunung Mas,WIB,-1.2522464,113.5728501,84,2025-03-04 02:28:14.381,2025-03-04 02:28:14.381
6211,62.11,62,Kabupaten Pulang Pisau,WIB,-2.7582411,114.2657969,4,2025-03-04 02:28:14.382,2025-03-04 02:28:14.382
6212,62.12,62,Kabupaten Murung Raya,WIB,-0.1362171,114.3341432,574,2025-03-04 02:28:14.383,2025-03-04 02:28:14.383
6213,62.13,62,Kabupaten Barito Timur,WIB,-2.0123999,115.188916,54,2025-03-04 02:28:14.384,2025-03-04 02:28:14.384
6271,62.71,62,Kota Palangkaraya,WIB,-2.2161048,113.913977,16,2025-03-04 02:28:14.385,2025-03-04 02:28:14.385
6301,63.01,63,Kabupaten Tanah Laut,WITA,-3.7694047,114.8092691,23,2025-03-04 02:28:14.386,2025-03-04 02:28:14.386
6302,63.02,63,Kabupaten Kotabaru,WITA,-3.0029841,115.9467997,85,2025-03-04 02:28:14.387,2025-03-04 02:28:14.387
6303,63.03,63,Kabupaten Banjar,WITA,-3.3200228,114.9991464,17,2025-03-04 02:28:14.388,2025-03-04 02:28:14.388
6304,63.04,63,Kabupaten Barito Kuala,WITA,-3.0714738,114.6667939,5,2025-03-04 02:28:14.388,2025-03-04 02:28:14.388
6305,63.05,63,Kabupaten Tapin,WITA,-2.9160746,115.0465991,4,2025-03-04 02:28:14.389,2025-03-04 02:28:14.389
6306,63.06,63,Kabupaten Hulu Sungai Selatan,WITA,-2.7662681,115.2363408,15,2025-03-04 02:28:14.39,2025-03-04 02:28:14.39
6307,63.07,63,Kabupaten Hulu Sungai Tengah,WITA,-2.6153162,115.5207358,142,2025-03-04 02:28:14.394,2025-03-04 02:28:14.394
6308,63.08,63,Kabupaten Hulu Sungai Utara,WITA,-2.4421225,115.188916,6,2025-03-04 02:28:14.395,2025-03-04 02:28:14.395
6309,63.09,63,Kabupaten Tabalong,WITA,-1.864302,115.5681084,71,2025-03-04 02:28:14.396,2025-03-04 02:28:14.396
6310,63.10,63,Kabupaten Tanah Bumbu,WITA,-3.4512244,115.5681084,50,2025-03-04 02:28:14.397,2025-03-04 02:28:14.397
6311,63.11,63,Kabupaten Balangan,WITA,-2.3260425,115.6154732,49,2025-03-04 02:28:14.398,2025-03-04 02:28:14.398
6371,63.71,63,Kota Banjarmasin,WITA,-3.3123016,114.5765846,7,2025-03-04 02:28:14.401,2025-03-04 02:28:14.401
6372,63.72,63,Kota Banjarbaru,WITA,-3.3123016,114.5765846,7,2025-03-04 02:28:14.402,2025-03-04 02:28:14.402
6401,64.01,64,Kabupaten Paser,WITA,-1.7175266,115.9467997,153,2025-03-04 02:28:14.403,2025-03-04 02:28:14.403
6402,64.02,64,Kabupaten Kutai Kartanegara,WITA,-0.1336655,116.6081653,5,2025-03-04 02:28:14.403,2025-03-04 02:28:14.403
6403,64.03,64,Kabupaten Berau,WITA,2.2791966,118.0908588,14,2025-03-04 02:28:14.404,2025-03-04 02:28:14.404
6407,64.07,64,Kabupaten Kutai Barat,WITA,-0.1674584,115.6253477,161,2025-03-04 02:28:14.405,2025-03-04 02:28:14.405
6408,64.08,64,Kabupaten Kutai Timur,WITA,0.9433774,116.9852422,90,2025-03-04 02:28:14.406,2025-03-04 02:28:14.406
6409,64.09,64,Kabupaten Penajam Paser Utara,WITA,-1.2917094,116.5137964,55,2025-03-04 02:28:14.406,2025-03-04 02:28:14.406
6411,64.11,64,Kabupaten Mahakam Ulu,WITA,0.9616678,114.7142918,218,2025-03-04 02:28:14.407,2025-03-04 02:28:14.407
6471,64.71,64,Kota Balikpapan,WITA,-1.2379274,116.8528526,20,2025-03-04 02:28:14.408,2025-03-04 02:28:14.408
6472,64.72,64,Kota Samarinda,WITA,-0.4966137,117.1616717,5,2025-03-04 02:28:14.41,2025-03-04 02:28:14.41
6474,64.74,64,Kota Bontang,WITA,0.120863,117.4800445,15,2025-03-04 02:28:14.411,2025-03-04 02:28:14.411
6501,65.01,65,Kabupaten Bulungan,WITA,2.9042476,116.9852422,296,2025-03-04 02:28:14.412,2025-03-04 02:28:14.412
6502,65.02,65,Kabupaten Malinau,WITA,3.0730929,116.0413889,611,2025-03-04 02:28:14.413,2025-03-04 02:28:14.413
6503,65.03,65,Kabupaten Nunukan,WITA,4.0809649,116.6081653,717,2025-03-04 02:28:14.414,2025-03-04 02:28:14.414
6504,65.04,65,Kabupaten Tana Tidung,WITA,3.551869,117.0794082,25,2025-03-04 02:28:14.415,2025-03-04 02:28:14.415
6571,65.71,65,Kota Tarakan,WITA,3.3273599,117.5785049,21,2025-03-04 02:28:14.416,2025-03-04 02:28:14.416
7101,71.01,71,Kabupaten Bolaang Mongondow,WITA,0.6870994,124.0641419,590,2025-03-04 02:28:14.417,2025-03-04 02:28:14.417
7102,71.02,71,Kabupaten Minahasa,WITA,1.2168837,124.8182593,821,2025-03-04 02:28:14.417,2025-03-04 02:28:14.417
7103,71.03,71,Kabupaten Kepulauan Sangihe,WITA,2.940319308852,125.49974230881,0,2025-03-04 02:28:14.418,2025-03-04 02:28:14.418
7104,71.04,71,Kabupaten Kepulauan Talaud,WITA,4.2845612091425,126.89968887042,36,2025-03-04 02:28:14.419,2025-03-04 02:28:14.419
7105,71.05,71,Kabupaten Minahasa Selatan,WITA,1.0946773,124.4641848,585,2025-03-04 02:28:14.419,2025-03-04 02:28:14.419
7106,71.06,71,Kabupaten Minahasa Utara,WITA,1.5327973,124.994751,219,2025-03-04 02:28:14.42,2025-03-04 02:28:14.42
7107,71.07,71,Kabupaten Minahasa Tenggara,WITA,1.0278551,124.7298765,360,2025-03-04 02:28:14.421,2025-03-04 02:28:14.421
7108,71.08,71,Kabupaten Bolaang Mongondow Utara,WITA,0.9070359,123.2657311,8,2025-03-04 02:28:14.422,2025-03-04 02:28:14.422
7109,71.09,71,Kabupaten Kepulauan Siau Tagulandang Biaro,WITA,2.345964,125.4124355,299,2025-03-04 02:28:14.423,2025-03-04 02:28:14.423
7110,71.10,71,Kabupaten Bolaang Mongondow Timur,WITA,0.7152651,124.4641848,1059,2025-03-04 02:28:14.424,2025-03-04 02:28:14.424
7111,71.11,71,Kabupaten Bolaang Mongondow Selatan,WITA,0.4439955,124.2617614,27,2025-03-04 02:28:14.425,2025-03-04 02:28:14.425
7171,71.71,71,Kota Manado,WITA,1.4748305,124.8420794,56,2025-03-04 02:28:14.426,2025-03-04 02:28:14.426
7172,71.72,71,Kota Bitung,WITA,1.4403744,125.1216524,16,2025-03-04 02:28:14.426,2025-03-04 02:28:14.426
7173,71.73,71,Kota Tomohon,WITA,1.3271885,124.8384833,773,2025-03-04 02:28:14.427,2025-03-04 02:28:14.427
7174,71.74,71,Kota Kotamobagu,WITA,0.7243733,124.3199316,257,2025-03-04 02:28:14.428,2025-03-04 02:28:14.428
7201,72.01,72,Kabupaten Banggai,WITA,-0.956178,122.6277455,1382,2025-03-04 02:28:14.431,2025-03-04 02:28:14.431
7202,72.02,72,Kabupaten Poso,WITA,-1.3949976,120.753772,10,2025-03-04 02:28:14.431,2025-03-04 02:28:14.431
7203,72.03,72,Kabupaten Donggala,WITA,-0.4233155,119.8352303,258,2025-03-04 02:28:14.432,2025-03-04 02:28:14.432
7204,72.04,72,Kabupaten Toli Toli,WITA,0.8768231,120.7579834,157,2025-03-04 02:28:14.435,2025-03-04 02:28:14.435
7205,72.05,72,Kabupaten Buol,WITA,1.1348741,121.4370471,7,2025-03-04 02:28:14.436,2025-03-04 02:28:14.436
7206,72.06,72,Kabupaten Morowali,WITA,-2.6987231,121.9017954,478,2025-03-04 02:28:14.437,2025-03-04 02:28:14.437
7207,72.07,72,Kabupaten Banggai Kepulauan,WITA,-1.3075939,123.0338767,231,2025-03-04 02:28:14.437,2025-03-04 02:28:14.437
7208,72.08,72,Kabupaten Parigi Moutong,WITA,0.4856312,120.9328208,12,2025-03-04 02:28:14.438,2025-03-04 02:28:14.438
7209,72.09,72,Kabupaten Tojo Una Una,WITA,-1.098757,121.5370003,431,2025-03-04 02:28:14.439,2025-03-04 02:28:14.439
7210,72.10,72,Kabupaten Sigi,WITA,-1.3859904,119.8815203,1590,2025-03-04 02:28:14.439,2025-03-04 02:28:14.439
7211,72.11,72,Kabupaten Banggai Laut,WITA,-1.6734525,123.5504076,286,2025-03-04 02:28:14.44,2025-03-04 02:28:14.44
7212,72.12,72,Kabupaten Morowali Utara,WITA,-1.6311761,121.3541631,1190,2025-03-04 02:28:14.441,2025-03-04 02:28:14.441
7271,72.71,72,Kota Palu,WITA,-0.9002915,119.8779987,32,2025-03-04 02:28:14.442,2025-03-04 02:28:14.442
7301,73.01,73,Kabupaten Kepulauan Selayar,WITA,-6.2869786,120.5048792,363,2025-03-04 02:28:14.443,2025-03-04 02:28:14.443
7302,73.02,73,Kabupaten Bulukumba,WITA,-5.4329368,120.2051096,119,2025-03-04 02:28:14.443,2025-03-04 02:28:14.443
7303,73.03,73,Kabupaten Bantaeng,WITA,-5.5169316,120.0202964,145,2025-03-04 02:28:14.444,2025-03-04 02:28:14.444
7304,73.04,73,Kabupaten Jeneponto,WITA,-5.554579,119.6730939,122,2025-03-04 02:28:14.445,2025-03-04 02:28:14.445
7305,73.05,73,Kabupaten Takalar,WITA,-5.4162493,119.4875668,14,2025-03-04 02:28:14.446,2025-03-04 02:28:14.446
7306,73.06,73,Kabupaten Gowa,WITA,-5.3102888,119.742604,696,2025-03-04 02:28:14.446,2025-03-04 02:28:14.446
7307,73.07,73,Kabupaten Sinjai,WITA,-5.2171961,120.112735,325,2025-03-04 02:28:14.447,2025-03-04 02:28:14.447
7308,73.08,73,Kabupaten Bone,WITA,-4.7443383,120.0665236,113,2025-03-04 02:28:14.448,2025-03-04 02:28:14.448
7309,73.09,73,Kabupaten Maros,WITA,-5.0549145,119.6962677,198,2025-03-04 02:28:14.448,2025-03-04 02:28:14.448
7310,73.10,73,Kabupaten Pangkajene Kepulauan,WITA,-4.805035,119.5571677,3,2025-03-04 02:28:14.449,2025-03-04 02:28:14.449
7311,73.11,73,Kabupaten Barru,WITA,-4.436417,119.6499162,120,2025-03-04 02:28:14.452,2025-03-04 02:28:14.452
7312,73.12,73,Kabupaten Soppeng,WITA,-4.3518541,119.9277947,39,2025-03-04 02:28:14.453,2025-03-04 02:28:14.453
7313,73.13,73,Kabupaten Wajo,WITA,-4.022229,120.0665236,57,2025-03-04 02:28:14.454,2025-03-04 02:28:14.454
7314,73.14,73,Kabupaten Sidenreng Rappang,WITA,-3.7738981,120.0202964,51,2025-03-04 02:28:14.455,2025-03-04 02:28:14.455
7315,73.15,73,Kabupaten Pinrang,WITA,-3.6483486,119.5571677,105,2025-03-04 02:28:14.457,2025-03-04 02:28:14.457
7316,73.16,73,Kabupaten Enrekang,WITA,-3.4590744,119.8815203,969,2025-03-04 02:28:14.46,2025-03-04 02:28:14.46
7317,73.17,73,Kabupaten Luwu,WITA,-3.3052214,120.2512728,65,2025-03-04 02:28:14.461,2025-03-04 02:28:14.461
7318,73.18,73,Kabupaten Tana Toraja,WITA,-3.0753003,119.742604,1095,2025-03-04 02:28:14.462,2025-03-04 02:28:14.462
7322,73.22,73,Kabupaten Luwu Utara,WITA,-2.2690446,119.9740534,1220,2025-03-04 02:28:14.463,2025-03-04 02:28:14.463
7324,73.24,73,Kabupaten Luwu Timur,WITA,-2.5825518,121.1710389,1151,2025-03-04 02:28:14.463,2025-03-04 02:28:14.463
7326,73.26,73,Kabupaten Toraja Utara,WITA,-2.8621942,119.8352303,1542,2025-03-04 02:28:14.464,2025-03-04 02:28:14.464
7371,73.71,73,Kota Makassar,WITA,-5.1831744,119.4192385,8,2025-03-04 02:28:14.465,2025-03-04 02:28:14.465
7372,73.72,73,Kota Pare Pare,WITA,-4.0096221,119.6290617,14,2025-03-04 02:28:14.467,2025-03-04 02:28:14.467
7373,73.73,73,Kota Palopo,WITA,-3.0016343,120.1985141,10,2025-03-04 02:28:14.467,2025-03-04 02:28:14.467
7401,74.01,74,Kabupaten Kolaka,WITA,-4.0673734,121.6207639,8,2025-03-04 02:28:14.468,2025-03-04 02:28:14.468
7402,74.02,74,Kabupaten Konawe,WITA,-3.9380432,122.0837445,31,2025-03-04 02:28:14.469,2025-03-04 02:28:14.469
7403,74.03,74,Kabupaten Muna,WITA,-4.901629,122.6277455,202,2025-03-04 02:28:14.469,2025-03-04 02:28:14.469
7404,74.04,74,Kabupaten Buton,WITA,-5.3096355,122.9888319,130,2025-03-04 02:28:14.47,2025-03-04 02:28:14.47
7405,74.05,74,Kabupaten Konawe Selatan,WITA,-4.2027915,122.4467238,277,2025-03-04 02:28:14.471,2025-03-04 02:28:14.471
7406,74.06,74,Kabupaten Bombana,WITA,-4.6543462,121.9017954,81,2025-03-04 02:28:14.472,2025-03-04 02:28:14.472
7407,74.07,74,Kabupaten Wakatobi,WITA,-5.67046665,123.79394565,0,2025-03-04 02:28:14.473,2025-03-04 02:28:14.473
7408,74.08,74,Kabupaten Kolaka Utara,WITA,-3.1347227,121.1710389,546,2025-03-04 02:28:14.474,2025-03-04 02:28:14.474
7409,74.09,74,Kabupaten Konawe Utara,WITA,-3.3803291,122.0837445,22,2025-03-04 02:28:14.475,2025-03-04 02:28:14.475
7410,74.10,74,Kabupaten Buton Utara,WITA,-4.7023424,123.0338767,13,2025-03-04 02:28:14.476,2025-03-04 02:28:14.476
7411,74.11,74,Kabupaten Kolaka Timur,WITA,-4.2279225,121.9017954,51,2025-03-04 02:28:14.477,2025-03-04 02:28:14.477
7412,74.12,74,Kabupaten Konawe Kepulauan,WITA,-4.1361465,123.1239049,646,2025-03-04 02:28:14.477,2025-03-04 02:28:14.477
7413,74.13,74,Kabupaten Muna Barat,WITA,-4.7990321,122.4969606,24,2025-03-04 02:28:14.478,2025-03-04 02:28:14.478
7414,74.14,74,Kabupaten Buton Tengah,WITA,-5.291781,122.3787597,90,2025-03-04 02:28:14.479,2025-03-04 02:28:14.479
7415,74.15,74,Kabupaten Buton Selatan,WITA,-5.3096355,122.9888319,130,2025-03-04 02:28:14.48,2025-03-04 02:28:14.48
7471,74.71,74,Kota Kendari,WITA,-3.9984597,122.5129742,3,2025-03-04 02:28:14.481,2025-03-04 02:28:14.481
7472,74.72,74,Kota Bau Bau,WITA,-5.507078,122.596901,287,2025-03-04 02:28:14.483,2025-03-04 02:28:14.483
7501,75.01,75,Kabupaten Gorontalo,WITA,0.5435442,123.0567693,7,2025-03-04 02:28:14.483,2025-03-04 02:28:14.483
7502,75.02,75,Kabupaten Boalemo,WITA,0.4933486,122.297008,8,2025-03-04 02:28:14.484,2025-03-04 02:28:14.484
7503,75.03,75,Kabupaten Bone Bolango,WITA,0.5657885,123.3486147,525,2025-03-04 02:28:14.485,2025-03-04 02:28:14.485
7504,75.04,75,Kabupaten Pahuwato,WITA,0.7055278,121.7195459,345,2025-03-04 02:28:14.486,2025-03-04 02:28:14.486
7505,75.05,75,Kabupaten Gorontalo Utara,WITA,0.9252647,122.4920088,1210,2025-03-04 02:28:14.487,2025-03-04 02:28:14.487
7571,75.71,75,Kota Gorontalo,WITA,0.5435442,123.0567693,7,2025-03-04 02:28:14.487,2025-03-04 02:28:14.487
7601,76.01,76,Kabupaten Pasangkayu,WITA,-1.5264542,119.5107708,170,2025-03-04 02:28:14.488,2025-03-04 02:28:14.488
7602,76.02,76,Kabupaten Mamuju,WITA,-2.4920057,119.3250347,200,2025-03-04 02:28:14.49,2025-03-04 02:28:14.49
7603,76.03,76,Kabupaten Mamasa,WITA,-2.9429195,119.3769057,1136,2025-03-04 02:28:14.492,2025-03-04 02:28:14.492
7604,76.04,76,Kabupaten Polewali Mandar,WITA,-3.3419323,119.1390642,24,2025-03-04 02:28:14.493,2025-03-04 02:28:14.493
7605,76.05,76,Kabupaten Majene,WITA,-3.0297251,118.9062794,388,2025-03-04 02:28:14.494,2025-03-04 02:28:14.494
7606,76.06,76,Kabupaten Mamuju Tengah,WITA,-1.9354109,119.5107708,485,2025-03-04 02:28:14.494,2025-03-04 02:28:14.494
8101,81.01,81,Kabupaten Maluku Tengah,WIT,-3.0166501,129.4864411,352,2025-03-04 02:28:14.495,2025-03-04 02:28:14.495
8102,81.02,81,Kabupaten Maluku Tenggara,WIT,-3.2384616,130.1452734,715,2025-03-04 02:28:14.496,2025-03-04 02:28:14.496
8103,81.03,81,Kabupaten Kepulauan Tanimbar,WIT,-7.5322642,131.3611121,46,2025-03-04 02:28:14.497,2025-03-04 02:28:14.497
8104,81.04,81,Kabupaten Buru,WIT,-3.3307379,126.6957216,534,2025-03-04 02:28:14.498,2025-03-04 02:28:14.498
8105,81.05,81,Kabupaten Seram Bagian Timur,WIT,-3.4233267,130.2271243,165,2025-03-04 02:28:14.499,2025-03-04 02:28:14.499
8106,81.06,81,Kabupaten Seram Bagian Barat,WIT,-3.1271575,128.4008357,755,2025-03-04 02:28:14.502,2025-03-04 02:28:14.502
8107,81.07,81,Kabupaten Kepulauan Aru,WIT,-6.206729431144,134.47183940824,18,2025-03-04 02:28:14.502,2025-03-04 02:28:14.502
8108,81.08,81,Kabupaten Maluku Barat Daya,WIT,-7.7851588,126.3498097,705,2025-03-04 02:28:14.503,2025-03-04 02:28:14.503
8109,81.09,81,Kabupaten Buru Selatan,WIT,-3.7273972,126.6957216,808,2025-03-04 02:28:14.504,2025-03-04 02:28:14.504
8171,81.71,81,Kota Ambon,WIT,-3.6386665,128.1688559,136,2025-03-04 02:28:14.505,2025-03-04 02:28:14.505
8172,81.72,81,Kota Tual,WIT,-5.626563,132.7520867,30,2025-03-04 02:28:14.506,2025-03-04 02:28:14.506
8201,82.01,82,Kabupaten Halmahera Barat,WIT,1.3589663,127.5960704,247,2025-03-04 02:28:14.506,2025-03-04 02:28:14.506
8202,82.02,82,Kabupaten Halmahera Tengah,WIT,0.4419543,128.3587174,21,2025-03-04 02:28:14.507,2025-03-04 02:28:14.507
8203,82.03,82,Kabupaten Halmahera Utara,WIT,1.5074308,127.8936663,100,2025-03-04 02:28:14.508,2025-03-04 02:28:14.508
8204,82.04,82,Kabupaten Halmahera Selatan,WIT,-1.5109015,127.7237678,1115,2025-03-04 02:28:14.509,2025-03-04 02:28:14.509
8205,82.05,82,Kabupaten Kepulauan Sula,WIT,-2.1202688244058,125.91284333639,342,2025-03-04 02:28:14.51,2025-03-04 02:28:14.51
8206,82.06,82,Kabupaten Halmahera Timur,WIT,1.3121235,128.4849923,326,2025-03-04 02:28:14.512,2025-03-04 02:28:14.512
8207,82.07,82,Kabupaten Pulau Morotai,WIT,2.3656672,128.4008357,549,2025-03-04 02:28:14.513,2025-03-04 02:28:14.513
8208,82.08,82,Kabupaten Pulau Taliabu,WIT,-1.8268344,124.7740793,589,2025-03-04 02:28:14.513,2025-03-04 02:28:14.513
8271,82.71,82,Kota Ternate,WIT,0.7710308,127.3695176,42,2025-03-04 02:28:14.514,2025-03-04 02:28:14.514
8272,82.72,82,Kota Tidore Kepulauan,WIT,0.5060207,127.681228,382,2025-03-04 02:28:14.515,2025-03-04 02:28:14.515
9103,91.03,91,Kabupaten Jayapura,WIT,-2.987923,139.8547266,600,2025-03-04 02:28:14.516,2025-03-04 02:28:14.516
9105,91.05,91,Kabupaten Kepulauan Yapen,WIT,-1.7469359,136.1709012,726,2025-03-04 02:28:14.517,2025-03-04 02:28:14.517
9106,91.06,91,Kabupaten Biak Numfor,WIT,-1.0381022,135.9800848,102,2025-03-04 02:28:14.518,2025-03-04 02:28:14.518
9110,91.10,91,Kabupaten Sarmi,WIT,-1.8899839,138.753058,10,2025-03-04 02:28:14.519,2025-03-04 02:28:14.519
9111,91.11,91,Kabupaten Keerom,WIT,-3.3449536,140.7624493,300,2025-03-04 02:28:14.523,2025-03-04 02:28:14.523
9115,91.15,91,Kabupaten Waropen,WIT,-2.8435717,136.670534,141,2025-03-04 02:28:14.525,2025-03-04 02:28:14.525
9119,91.19,91,Kabupaten Supiori,WIT,-0.7295099,135.6385125,119,2025-03-04 02:28:14.526,2025-03-04 02:28:14.526
9120,91.20,91,Kabupaten Mamberamo Raya,WIT,-2.5331255,137.7637565,622,2025-03-04 02:28:14.527,2025-03-04 02:28:14.527
9171,91.71,91,Kota Jayapura,WIT,-2.5916025,140.6689995,19,2025-03-04 02:28:14.527,2025-03-04 02:28:14.527
9202,92.02,92,Kabupaten Manokwari,WIT,-0.8614531,134.0620421,23,2025-03-04 02:28:14.528,2025-03-04 02:28:14.528
9203,92.03,92,Kabupaten Fak Fak,WIT,-2.9301404,132.3024382,30,2025-03-04 02:28:14.53,2025-03-04 02:28:14.53
9206,92.06,92,Kabupaten Teluk Bintuni,WIT,-1.9056848,133.329466,71,2025-03-04 02:28:14.532,2025-03-04 02:28:14.532
9207,92.07,92,Kabupaten Teluk Wondama,WIT,-2.8551699,134.3236557,671,2025-03-04 02:28:14.533,2025-03-04 02:28:14.533
9208,92.08,92,Kabupaten Kaimana,WIT,-3.288406,133.9436788,1109,2025-03-04 02:28:14.534,2025-03-04 02:28:14.534
9211,92.11,92,Kabupaten Manokwari Selatan,WIT,-0.8912103,134.046322,24,2025-03-04 02:28:14.535,2025-03-04 02:28:14.535
9212,92.12,92,Kabupaten Pegunungan Arfak,WIT,-1.1554562,133.7142484,1985,2025-03-04 02:28:14.536,2025-03-04 02:28:14.536
9301,93.01,93,Kabupaten Merauke,WIT,-8.4973832,140.395268,9,2025-03-04 02:28:14.537,2025-03-04 02:28:14.537
9302,93.02,93,Kabupaten Boven Digoel,WIT,-5.7400018,140.3481835,57,2025-03-04 02:28:14.537,2025-03-04 02:28:14.537
9303,93.03,93,Kabupaten Mappi,WIT,-6.7606468,139.6911374,48,2025-03-04 02:28:14.538,2025-03-04 02:28:14.538
9304,93.04,93,Kabupaten Asmat,WIT,-5.0573958,138.3988186,11,2025-03-04 02:28:14.538,2025-03-04 02:28:14.538
9401,94.01,94,Kabupaten Nabire,WIT,-3.5095462,135.7520985,606,2025-03-04 02:28:14.539,2025-03-04 02:28:14.539
9402,94.02,94,Kabupaten Puncak Jaya,WIT,-3.4467891,137.8427298,1007,2025-03-04 02:28:14.54,2025-03-04 02:28:14.54
9403,94.03,94,Kabupaten Paniai,WIT,-3.7876441,136.3624686,1973,2025-03-04 02:28:14.542,2025-03-04 02:28:14.542
9404,94.04,94,Kabupaten Mimika,WIT,-4.4553223,137.1362125,165,2025-03-04 02:28:14.543,2025-03-04 02:28:14.543
9405,94.05,94,Kabupaten Puncak,WIT,-3.8649098,137.6061625,2333,2025-03-04 02:28:14.543,2025-03-04 02:28:14.543
9406,94.06,94,Kabupaten Dogiyai,WIT,-4.0454139,135.6763443,2289,2025-03-04 02:28:14.544,2025-03-04 02:28:14.544
9407,94.07,94,Kabupaten Intan Jaya,WIT,-3.5076422,136.7478493,2054,2025-03-04 02:28:14.545,2025-03-04 02:28:14.545
9408,94.08,94,Kabupaten Deiyai,WIT,-4.0974893,136.4393054,790,2025-03-04 02:28:14.546,2025-03-04 02:28:14.546
9501,95.01,95,Kabupaten Jayawijaya,WIT,-4.0004481,138.7995122,1776,2025-03-04 02:28:14.546,2025-03-04 02:28:14.546
9502,95.02,95,Kabupaten Pegunungan Bintang,WIT,-4.5589872,140.5135589,1868,2025-03-04 02:28:14.547,2025-03-04 02:28:14.547
9503,95.03,95,Kabupaten Yahukimo,WIT,-4.4939717,139.5279996,2634,2025-03-04 02:28:14.547,2025-03-04 02:28:14.547
9504,95.04,95,Kabupaten Tolikara,WIT,-3.481132,138.4787258,2973,2025-03-04 02:28:14.552,2025-03-04 02:28:14.552
9505,95.05,95,Kabupaten Mamberamo Tengah,WIT,-2.3745692,138.3190276,316,2025-03-04 02:28:14.553,2025-03-04 02:28:14.553
9506,95.06,95,Kabupaten Yalimo,WIT,-3.7852847,139.4466005,423,2025-03-04 02:28:14.554,2025-03-04 02:28:14.554
9507,95.07,95,Kabupaten Lanny Jaya,WIT,-3.971033,138.3190276,3067,2025-03-04 02:28:14.554,2025-03-04 02:28:14.554
9508,95.08,95,Kabupaten Nduga,WIT,-4.4069496,138.2393528,317,2025-03-04 02:28:14.555,2025-03-04 02:28:14.555
9601,96.01,96,Kabupaten Sorong,WIT,-1.1223204,131.4883373,11,2025-03-04 02:28:14.556,2025-03-04 02:28:14.556
9604,96.04,96,Kabupaten Sorong Selatan,WIT,-1.7657744,132.1572702,20,2025-03-04 02:28:14.556,2025-03-04 02:28:14.556
9605,96.05,96,Kabupaten Raja Ampat,WIT,-1.0915151,130.8778586,44,2025-03-04 02:28:14.557,2025-03-04 02:28:14.557
9609,96.09,96,Kabupaten Tambrauw,WIT,-0.781856,132.3938375,539,2025-03-04 02:28:14.557,2025-03-04 02:28:14.557
9610,96.10,96,Kabupaten Maybrat,WIT,-1.2970979,132.3150993,271,2025-03-04 02:28:14.558,2025-03-04 02:28:14.558
9671,96.71,96,Kota Sorong,WIT,-0.8761629,131.255828,13,2025-03-04 02:28:14.559,2025-03-04 02:28:14.559